{
  "title": "まどぐち　あんない",
  "subtitle": "すぎなみくの　やくしょ　の　じょうほう",
  "search": "まどぐちを　さがす",
  "list": {
    "suginamiCityHall": {
      "name": "すぎなみくやくしょ",
      "address": "〒166-8570 すぎなみく　あさがやみなみ1-15-1",
      "hours": "げつようび〜きんようび　8:30〜17:00",
      "phone": "03-3312-2111",
      "description": "じゅうみん　とうろく、ほけん、ねんきんの　てつづき"
    },
    "suginamiTaxOffice": {
      "name": "すぎなみ　ぜいむしょ",
      "address": "〒167-8506 すぎなみく　おぎくぼ5-15-13",
      "hours": "げつようび〜きんようび　8:30〜17:00",
      "phone": "03-3392-1111",
      "description": "ぜいきんの　てつづき"
    },
    "immigrationBureau": {
      "name": "とうきょう　にゅうこく　ざいりゅう　かんりきょく",
      "address": "〒108-8255 みなとく　こうなん5-5-30",
      "hours": "げつようび〜きんようび　9:00〜16:00",
      "phone": "0570-013904",
      "description": "ビザの　こうしん・へんこう"
    },
    "suginamiInternational": {
      "name": "すぎなみく　こうりゅう　きょうかい",
      "address": "〒166-0004 すぎなみく　あさがやみなみ3-2-19",
      "hours": "げつようび〜どようび　9:00〜21:00",
      "phone": "03-5378-8833",
      "description": "がいこくじん　そうだん、にほんご　きょうしつ"
    }
  },
  "floor": {
    "title": "フロア　あんない",
    "counter": "まどぐち"
  },
  "directions": {
    "title": "いきかた",
    "byTrain": "でんしゃで",
    "byBus": "バスで",
    "onFoot": "あるいて"
  },
  "call": "でんわする",
  "map": "ちずを　みる"
}
